{"Year":[2020,2020,2021,2020,2021,2020,2020,2021,2020,2021,2020,2020,2021,2021,2021,2021,2021],"COMMENT_OBS":["UpperBound = NaN;  LowerBound = NaN;  Mooring Name: Coral Garden | LATITUDE: -4.00 | LONGITUDE: 39.75; Upper and lower bounds where not provided.","Mooring Name:  Diani | LATITUDE: -4.34 | LONGITUDE: 39.58","Mooring Name: Diani | LATITUDE: -4.344 | LONGITUDE: 39.579","Mooring Name:  Gazi | LATITUDE: -4.46 | LONGITUDE: 39.53","Mooring Name: Gazi | LATITUDE: -4.456 | LONGITUDE: 39.527","UpperBound = NaN;  LowerBound = NaN;  Mooring Name:  Kilifi bay | LATITUDE: -3.62 | LONGITUDE: 39.88","Mooring Name:  Kuruwitu | LATITUDE: -3.81| LONGITUDE: 39.84","Mooring Name: Kuruwitu | LATITUDE: -3.812 | LONGITUDE: 39.837","Mooring Name:  Malindi | LATITUDE: -3.23 | LONGITUDE: 40.14","Mooring Name: Malindi | LATITUDE: -3.235 | LONGITUDE: 40.137","Mooring Name:  Nyali | LATITUDE: -4.06 | LONGITUDE: 39.72","Mooring Name:  Shimoni | LATITUDE: -4.46 | LONGITUDE: 39.53","Mooring Name: Shimoni | LATITUDE: -4.665 | LONGITUDE: 39.344","Mooring Name: Kilifi | LATITUDE: -3.624 | LONGITUDE: 39.884","Mooring Name: Lamu | LATITUDE: -2.217 | LONGITUDE: 40.979","Mooring Name: Mombasa | LATITUDE: -4.002 | LONGITUDE: 39.750","Mooring Name: Vanga | LATITUDE: -4.675 | LONGITUDE: 39.268"],"Custom Breakdown":["Custom code 01","Custom code 02","Custom code 02","Custom code 03","Custom code 03","Custom code 04","Custom code 05","Custom code 05","Custom code 06","Custom code 06","Custom code 07","Custom code 08","Custom code 08","Custom code 09","Custom code 10","Custom code 11","Custom code 12"],"Label for custom breakdown":["Coral Garden","Diani","Diani","Gazi","Gazi","Kilifi bay","Kuruwitu","Kuruwitu","Malindi","Malindi","Nyali","Shimoni","Shimoni","Kilifi","Lamu","Mombasa","Vanga"],"Observation-level footnotes":["UpperBound = NaN;  LowerBound = NaN;  Mooring Name: Coral Garden | LATITUDE: -4.00 | LONGITUDE: 39.75; Upper and lower bounds where not provided.","Mooring Name: Diani | LATITUDE: -4.344 | LONGITUDE: 39.579","Mooring Name: Diani | LATITUDE: -4.344 | LONGITUDE: 39.579","Mooring Name: Gazi | LATITUDE: -4.456 | LONGITUDE: 39.527","Mooring Name: Gazi | LATITUDE: -4.456 | LONGITUDE: 39.527","UpperBound = NaN;  LowerBound = NaN;  Mooring Name:  Kilifi bay | LATITUDE: -3.62 | LONGITUDE: 39.88","Mooring Name: Kuruwitu | LATITUDE: -3.812 | LONGITUDE: 39.837","Mooring Name: Kuruwitu | LATITUDE: -3.812 | LONGITUDE: 39.837","Mooring Name: Malindi | LATITUDE: -3.235 | LONGITUDE: 40.137","Mooring Name: Malindi | LATITUDE: -3.235 | LONGITUDE: 40.137","Mooring Name:  Nyali | LATITUDE: -4.06 | LONGITUDE: 39.72","Mooring Name: Shimoni | LATITUDE: -4.665 | LONGITUDE: 39.344","Mooring Name: Shimoni | LATITUDE: -4.665 | LONGITUDE: 39.344","Mooring Name: Kilifi | LATITUDE: -3.624 | LONGITUDE: 39.884","Mooring Name: Lamu | LATITUDE: -2.217 | LONGITUDE: 40.979","Mooring Name: Mombasa | LATITUDE: -4.002 | LONGITUDE: 39.750","Mooring Name: Vanga | LATITUDE: -4.675 | LONGITUDE: 39.268"],"UPPER_BOUND":[null,"8.021","8.123","8.076","8.067",null,"7.908","8.063","7.983","8.104","7.903","8.019","8.049","7.993","7.989","8.065","8.015"],"LOWER_BOUND":[null,"7.804","7.947","7.881","7.923",null,"7.892","7.924","7.814","7.946","7.894","7.901","7.918","7.944","7.95","8.012","7.89"],"Upper bound value":[null,"8.123","8.123","8.067","8.067",null,"8.063","8.063","8.104","8.104","7.903","8.049","8.049","7.993","7.989","8.065","8.015"],"Lower bound value":[null,"7.947","7.947","7.923","7.923",null,"7.924","7.924","7.946","7.946","7.894","7.918","7.918","7.944","7.95","8.012","7.89"],"Value":[7.981,7.904,8.012,7.994,7.984,7.935,7.9,7.99,7.894,8.024,7.898,7.956,7.997,7.963,7.97,8.028,7.944]}